[
  {
    "id": 1,
    "name": "Bloom Brasserie",
    "city": "Dublin",
    "cuisine style": ["Irish", "European"],
    "rating": "4.5",
    "price range": "$$-$$$",
    "image": "images/bloom.jpg",
    "address": "11 Baggot Street Upper, Dublin, D04 HN92",
    "lat": 53.33364964740597, 
    "lng": -6.244792573476085,
    "phone": "016687170"
  },
  {
    "id": 2,
    "name": "The Vintage Kitchen",
    "city": "Dublin",
    "cuisine style": ["Irish", "European"],
    "rating": "4.5",
    "price range": "$$-$$$",
    "image": "images/vintagekitch.jpg",
    "address": "7 Poolbeg St, Dublin 2, D02 NX03",
    "lat": 53.347022458133026,
    "lng": -6.255211805596162,
    "phone": "016798705"
  },
  {
    "id": 3,
    "name": "Chapter One",
    "city": "Dublin",
    "cuisine style": ["Irish", "European"],
    "rating": "4.5",
    "price range": "$$$$",
    "image": "images/chapter1.jpg",
    "address": "18-19 Parnell Square N, Rotunda, Dublin 1, D01 T3V8",
    "lat": 53.3545501487227,
    "lng": -6.265222534640444,
    "phone": "018732266"
  },
  {
    "id": 4,
    "name": "Dax Restaurant",
    "city": "Dublin",
    "cuisine style": ["French"],
    "rating": "4.5",
    "price range": "$$$$",
    "image": "images/dax.jpg",
    "address": "Pembroke Street Upper Pembroke Street Upper, Dublin 2, D02 AK20",
    "lat": 53.33493269741264,
    "lng": -6.254088849775122,
    "phone": "016761494"
  },
  {
    "id": 5,
    "name": "Lemon and Duke",
    "city": "Dublin",
    "cuisine style": ["Irish", "European", "Pub", "Bar", "Vegetarian Friendly", "Vegan Options", "Gluten Free Options"],
    "rating": "4.5",
    "price range": "$$ - $$$",
    "image": "images/lemonduke.jpg",
    "address": "Royal Hibernian Way, 1 Duke Ln, Upper, Dublin, D02 YK71",
    "lat": 53.34164774475201,
    "lng": -6.258517688404484,
    "phone": "016796260"
  },
  {
    "id": 6,
    "name": "Pickle",
    "city": "Dublin",
    "cuisine style": ["Indian", "Asian", "Vegetarian Friendly", "Vegan Options", "Gluten Free Options"],
    "rating": "4.5",
    "price range": "$$ - $$$",
    "image": "images/pickle.jpg",
    "address": "43 Camden Street Lower, Saint Kevin's, Dublin 2, D02 N998",
    "lat": 53.334088101495034,
    "lng": -6.2645567937913915,
    "phone": "015557755"
  },
  {
    "id": 7,
    "name": "Boojum - Millenium Walkway",
    "city": "Dublin",
    "cuisine style": ["Mexican", "Fast Food", "Vegetarian Friendly", "Vegan Options", "Gluten Free Options"],
    "rating": "4.5",
    "price range": "$",
    "image": "images/boojum.jpg",
    "address": "3 Abbey Street Lower, North City, Dublin 1, D01 K6R2",
    "lat": 53.34908891313424,
    "lng": -6.256684592599528,
    "phone": "018747237"
  },
  {
    "id": 8,
    "name": "Pablo Picante",
    "city": "Dublin",
    "cuisine style": ["Mexican", "Latin", "Fast Food", "Central American", "Vegetarian Friendly", "Vegan Options"],
    "rating": "4.5",
    "price range": "$",
    "image": "images/pablopicante.jpg",
    "address": "4 Clarendon Market, Dublin Southside, Dublin, D02 AV84",
    "lat": 53.3411265782386,
    "lng": -6.255828043593412,
    "phone": "017383930"
  },
  {
    "id": 9,
    "name": "El Grito",
    "city": "Dublin",
    "cuisine style": ["Mexican", "Latin", "Fast Food", "Central American", "Vegetarian Friendly"],
    "rating": "5",
    "price range": "$",
    "image": "images/elgrito.jpeg",
    "address": "20 Mountjoy Square E, Mountjoy, Dublin, D01 K3T1",
    "lat": 53.357464036028546, 
    "lng": -6.256132507273774,
    "phone": "015486410"
  },
  {
    "id": 10,
    "name": "Mexico to Rome",
    "city": "Dublin",
    "cuisine style": ["Italian", "Mexican", "European", "Vegetarian Friendly", "Gluten Free Options"],
    "rating": "3.5",
    "price range": "$",
    "image": "images/mexicotorome.jpg",
    "address": "The Cobbles, 23 Essex St E, Temple Bar, Dublin 2, D02 WP71",
    "lat": 53.34573311170641,
    "lng": -6.263652269861667,
    "phone": "016772727"
  },
  {
    "id": 11,
    "name": "Hang Dai Chinese",
    "city": "Dublin",
    "cuisine style": ["Chinese", "Asian", "Vegetarian Friendly"],
    "rating": "4",
    "price range": "$$ - $$$",
    "image": "images/hangdai.jpg",
    "address": "20 Camden Street Lower, Saint Kevin's, Dublin, D02 T275",
    "lat": 53.33538405163713,
    "lng": -6.26400115032193,
    "phone": "015458888"
  },
  {
    "id": 12,
    "name": "Ka Shing",
    "city": "Dublin",
    "cuisine style": ["Chinese", "Asian", "Vegetarian Friendly"],
    "rating": "4",
    "price range": "$$ - $$$",
    "image": "images/kashing.jpeg",
    "address": "12A Wicklow St, Dublin 2, D02 ND37",
    "lat": 53.34311795796345, 
    "lng": -6.260361163267705,
    "phone": "016772580"
  },
  {
    "id": 13,
    "name": "The Chili Shack",
    "city": "Dublin",
    "cuisine style": ["Mexican", "American", "Southwestern", "Canadian"],
    "rating": "4.5",
    "price range": "$",
    "image": "images/chilishack.jpeg",
    "address": "19 Abbeygate Street Upper, Galway, H91 N2P1",
    "lat": 53.35422649732111,  
    "lng": -6.282829560942768,
    "phone": "0861890753"
  },
  {
    "id": 14,
    "name": "Dada Moroccan Cuisine",
    "city": "Dublin",
    "cuisine style": ["African", "Moroccan", "Mediterranean", "Middle Eastern", "Vegetarian Friendly", "Vegan Options", "Halal", "Gluten Free Options"],
    "rating": "4",
    "price range": "$$ - $$$",
    "image": "images/dada.jpg",
    "address": "City Centre, 45-44 William St S, Dublin 2, D02 WT04",
    "lat": 53.34142917325551, 
    "lng": -6.262332488404507,
    "phone": "016170777"
  },
  {
    "id": 15,
    "name": "Milano Restaurant",
    "city": "Dublin",
    "cuisine style": ["Italian", "Pizza", "European", "Vegetarian Friendly", "Vegan Options", "Gluten Free Options"],
    "rating": "3.5",
    "price range": "$$ - $$$",
    "image": "images/milano.jpg",
    "address": "6 Excise Walk, Clarion Quay, North Wall, Dublin, D01 H9N4",
    "lat": 53.34074242655871,  
    "lng": -6.2582508244734685,
    "phone": "016707744"
  },
  {
    "id": 16,
    "name": "Matt the Rashers",
    "city": "Dublin",
    "cuisine style": ["Irish", "Cafe", "Grill"],
    "rating": "4.5",
    "price range": "$",
    "image": "images/mattrashers.jpeg",
    "address": "31-32 Pembroke Street Lower, Dublin 2, D02 Y523",
    "lat": 53.320482556175115, 
    "lng": -6.291243520940453,
    "phone": "014927001"
  },
  {
    "id": 17,
    "name": "Wowburger",
    "city": "Dublin",
    "cuisine style": ["American", "Bar", "Fast Food"],
    "rating": "4",
    "price range": "$",
    "image": "images/wowburger.jpg",
    "address": "8 Wicklow St, Dublin 2, D02 AX90",
    "lat": 53.34403634197723, 
    "lng": -6.252496310815066,
    "phone": "016708629"
  },
  {
    "id": 18,
    "name": "Sistar Indian Cuisine",
    "city": "Dublin",
    "cuisine style": ["Indian", "Asian", "Vegetarian Friendly", "Vegan Options", "Gluten Free Options"],
    "rating": "4.5",
    "price range": "$$ - $$$",
    "image": "images/sitar.jpeg",
    "address": "18-19 Temple Bar, Dublin 2",
    "lat": 54.00586250687342, 
    "lng": -6.3980261343882985,
    "phone": "0429355616"
  },
  {
    "id": 19,
    "name": "El Bahia",
    "city": "Dublin",
    "cuisine style": ["African", "Moroccan", "Mediterranean", "Vegetarian Friendly", "Halal"],
    "rating": "4",
    "price range": "$$- $$$",
    "image": "images/elbahia.jpg",
    "address": "137 Wicklow St, Dublin, D02 AE27",
    "lat": 53.34290816386176, 
    "lng": -6.261109697104969,
    "phone": "016770213"
  },
  {
    "id": 20,
    "name": "Arirang",
    "city": "Dublin",
    "cuisine style": ["Asian", "Korean"],
    "rating": "4.5",
    "price range": "$$",
    "image": "images/arirang.jpg",
    "address": "First Floor, 26 Paul St, Centre, Cork, T12 E020",
    "lat": 51.92296528462534, 
    "lng": -8.315881017106586,
    "phone": "016718888"
  },
  {
    "id": 21,
    "name": "Munchies",
    "city": "Dublin",
    "cuisine style": ["Cafe", "European"],
    "rating": "4",
    "price range": "$",
    "image": "images/munchies.jpg",
    "address": "146a Baggot Street Lower, Dublin, D02 RD29",
    "lat": 53.39251569432285, 
    "lng": -6.114608625668643,
    "phone": "018391612"
  },
  {
    "id": 22,
    "name": "Little Ass Burito Bar",
    "city": "Dublin",
    "cuisine style": ["Mexican", "Fast Food", "Vegan Options"],
    "rating": "4",
    "price range": "$",
    "image": "images/littleass.jpeg",
    "address": "Temple Bar Music Centre, Curved St, Temple Bar, Dublin 2",
    "lat": 53.3411485038449, 
    "lng": -6.2533437234767755,
    "phone": "016799694"
  },
  {
    "id": 23,
    "name": "Iskanders Kebab Shop",
    "city": "Dublin",
    "cuisine style": ["Fast Food", "Turkish", "Middle Eastern", "Halal"],
    "rating": "4",
    "price range": "$",
    "image": "images/iskanders.jpg",
    "address": "29 Liffey St. Lower, North City, Dublin 1, D01 CH76",
    "lat": 53.33826024873045, 
    "lng": -6.251697211613707,
    "phone": "014852193"
  },
  {
    "id": 24,
    "name": "Eddie Rocket's City Diner",
    "city": "Dublin",
    "cuisine style": ["American", "Fast Food", "Diner"],
    "rating": "3.5",
    "price range": "$$- $$$",
    "image": "images/eddierocket.jpg",
    "address": "52 Lower O'Connell Street Lower, Upper, Dublin, D01 C2P1",
    "lat": 53.393074764317035,
    "lng": -6.249667893764413,
    "phone": "018824340"
  },
  {
    "id": 25,
    "name": "Mushashi",
    "city": "Dublin",
    "cuisine style": ["Japanese", "Seafood", "Sushi", "Asian"],
    "rating": "3.5",
    "price range": "$$ - $$$",
    "image": "images/musashi.jpg",
    "address": "15 Capel St, North City, Dublin 1, D01 E1C0",
    "lat": 53.34705975564625, 
    "lng": -6.26719715402009,
    "phone": "015328057"
  }
]